occupation,address,city,country,address_full,lat,long
Laundries,7 Beaufort Road,Edinburgh,UK,"7 Beaufort Road , Edinburgh , UK",55.93497,-3.1936788
Laundries,20 Fettes Row,Edinburgh,UK,"20 Fettes Row , Edinburgh , UK",55.9589836,-3.2015327
Laundries,74 Gilmore Place,Edinburgh,UK,"74 Gilmore Place , Edinburgh , UK",55.9408471,-3.2098178
Laundries,21 Angle Park Terrace,Edinburgh,UK,"21 Angle Park Terrace , Edinburgh , UK",55.9383727,-3.2245905
Laundries,22 Angle Park Terrace,Edinburgh,UK,"22 Angle Park Terrace , Edinburgh , UK",55.938361,-3.2246069
Laundries,17 Churchill Place,Edinburgh,UK,"17 Churchill Place , Edinburgh , UK",55.9316345,-3.1791312002184404
Laundries,93 Pitt Street,Edinburgh,UK,"93 Pitt Street , Edinburgh , UK",55.9733915,-3.1854743
Laundries,1 South Howard Place,Edinburgh,UK,"1 South Howard Place , Edinburgh , UK",55.9639182,-3.2017656
Laundries,217 Causewayside,Edinburgh,UK,"217 Causewayside , Edinburgh , UK",55.9373236,-3.1807187
Laundries,28 Easter Road,Edinburgh,UK,"28 Easter Road , Edinburgh , UK",55.9581968,-3.1716934
Laundries,145 Dalry Road,Edinburgh,UK,"145 Dalry Road , Edinburgh , UK",55.9396186,-3.2257093
Laundries,3 Merchiston Place,Edinburgh,UK,"3 Merchiston Place , Edinburgh , UK",55.935801,-3.2104163
Laundries,11 Shrub Place,Edinburgh,UK,"11 Shrub Place , Edinburgh , UK",55.9622147,-3.1792916
Laundries,12 Lochrin Buildings,Edinburgh,UK,"12 Lochrin Buildings , Edinburgh , UK",55.9419653,-3.2040463
Laundries,52 Clerk Street,Edinburgh,UK,"52 Clerk Street , Edinburgh , UK",55.9420666,-3.181829
Laundries,39A Queen Street,Edinburgh,UK,"39A Queen Street , Edinburgh , UK",55.9541763,-3.2015323
Laundries,3 Henderson Terrace,Edinburgh,UK,"3 Henderson Terrace , Edinburgh , UK",55.9390754,-3.2247737
Laundries,25 Barclay Place,Edinburgh,UK,"25 Barclay Place , Edinburgh , UK",55.9401385,-3.2041473
Laundries,21 Dublin Street,Edinburgh,UK,"21 Dublin Street , Edinburgh , UK",55.9566026,-3.1930907
Laundries,22 York Place,Edinburgh,UK,"22 York Place , Edinburgh , UK",55.9563344,-3.1911796
Laundries,"12 Crighton Place, Leith Walk",Edinburgh,UK,"12 Crighton Place, Leith Walk , Edinburgh , UK",55.9629419,-3.178323
Laundries,199 Causewayside,Edinburgh,UK,"199 Causewayside , Edinburgh , UK",55.9355124,-3.1795392
Laundries,"211 High Street, Portobello",Edinburgh,UK,"211 High Street, Portobello , Edinburgh , UK",55.9521347,-3.1128707
Laundries,253 Morningside Road,Edinburgh,UK,"253 Morningside Road , Edinburgh , UK",55.9271102,-3.2090681
Laundries,43 Newington Road,Edinburgh,UK,"43 Newington Road , Edinburgh , UK",55.9382782,-3.178597
Laundries,39 Queen Street,Edinburgh,UK,"39 Queen Street , Edinburgh , UK",55.9541899,-3.2014534
Laundries,78 Haymarket Terrace,Edinburgh,UK,"78 Haymarket Terrace , Edinburgh , UK",55.9459245,-3.2215078
Laundries,22 Raeburn Place,Edinburgh,UK,"22 Raeburn Place , Edinburgh , UK",55.9590318,-3.2106265
Laundries,30 Montagu Terrace,Edinburgh,UK,"30 Montagu Terrace , Edinburgh , UK",55.9702403,-3.208075
Laundries,123 Bruntsfield Place,Edinburgh,UK,"123 Bruntsfield Place , Edinburgh , UK",55.9367217,-3.2073575
Laundries,"271 Leith Walk, Leith",Edinburgh,UK,"271 Leith Walk, Leith , Edinburgh , UK",55.9655474,-3.1757537
Laundries,7 Beaufort Road,Edinburgh,UK,"7 Beaufort Road , Edinburgh , UK",55.93497,-3.1936788
Laundries,328 Leith Walk,Edinburgh,UK,"328 Leith Walk , Edinburgh , UK",55.9646841,-3.1772181
Laundries,48A Dean Street,Edinburgh,UK,"48A Dean Street , Edinburgh , UK",55.958115,-3.2121427
Laundries,47 Ferry Road,Edinburgh,UK,"47 Ferry Road , Edinburgh , UK",55.9749885,-3.1806785
Laundries,9 Dundonald Street,Edinburgh,UK,"9 Dundonald Street , Edinburgh , UK",55.9592511,-3.1971135
Laundries,4 Seafield Place,Edinburgh,UK,"4 Seafield Place , Edinburgh , UK",55.9708907,-3.1516153
Laundries,29 Sciennes Road,Edinburgh,UK,"29 Sciennes Road , Edinburgh , UK",55.9379644,-3.1872154
Laundries,69 Slateford Road,Edinburgh,UK,"69 Slateford Road , Edinburgh , UK",55.9348275,-3.2316954
Laundries,5 Thorntree Street,Edinburgh,UK,"5 Thorntree Street , Edinburgh , UK",55.967335,-3.1699297
Laundries,35 Deanhaugh Street,Edinburgh,UK,"35 Deanhaugh Street , Edinburgh , UK",55.958652900000004,-3.209433030418201
Laundries,49 India Place,Edinburgh,UK,"49 India Place , Edinburgh , UK",55.9565525,-3.2089423
Undertakers,"258 High Street, Portobello",Edinburgh,UK,"258 High Street, Portobello , Edinburgh , UK",55.9519285,-3.1105597
Undertakers,105 Newington road,Edinburgh,UK,"105 Newington road , Edinburgh , UK",55.9375923,-3.1780133
Undertakers,65 George Street,Edinburgh,UK,"65 George Street , Edinburgh , UK",55.953276,-3.1998458
Undertakers,3 Scotland Street,Edinburgh,UK,"3 Scotland Street , Edinburgh , UK",55.9593172,-3.1945313
Undertakers,23 Greenside Place,Edinburgh,UK,"23 Greenside Place , Edinburgh , UK",55.957099,-3.1852598
Undertakers,24 Greenside Place,Edinburgh,UK,"24 Greenside Place , Edinburgh , UK",55.9571176,-3.1852373
Undertakers,73 South Clerk Street,Edinburgh,UK,"73 South Clerk Street , Edinburgh , UK",55.9393253,-3.17949
Undertakers,6 Lauriston Place,Edinburgh,UK,"6 Lauriston Place , Edinburgh , UK",55.9444812,-3.2013488
Undertakers,155 Morningside Road,Edinburgh,UK,"155 Morningside Road , Edinburgh , UK",55.9294663,-3.2094063
Undertakers,1 Barclay Place,Edinburgh,UK,"1 Barclay Place , Edinburgh , UK",55.9403914,-3.204182
Undertakers,9 Beaufort Road,Edinburgh,UK,"9 Beaufort Road , Edinburgh , UK",55.934941,-3.1938363
Undertakers,129 Gorgie Road,Edinburgh,UK,"129 Gorgie Road , Edinburgh , UK",55.9379853,-3.2311254
Undertakers,15 Dalry Road,Edinburgh,UK,"15 Dalry Road , Edinburgh , UK",55.9453892,-3.217102
Undertakers,26 Raeburn Place,Edinburgh,UK,"26 Raeburn Place , Edinburgh , UK",55.9590438,-3.2107764
Undertakers,1 Summer Place,Edinburgh,UK,"1 Summer Place , Edinburgh , UK",55.963859,-3.202009
Undertakers,23 Dalziel Place,Edinburgh,UK,"23 Dalziel Place , Edinburgh , UK",55.956414,-3.1609444
Undertakers,15 Bernard Street,Edinburgh,UK,"15 Bernard Street , Edinburgh , UK",55.9753791,-3.167372
Undertakers,"222 High Street, Portobello",Edinburgh,UK,"222 High Street, Portobello , Edinburgh , UK",55.952263,-3.1119422
Undertakers,28 Morrison Street,Edinburgh,UK,"28 Morrison Street , Edinburgh , UK",55.9458793,-3.2067526
Undertakers,66 Montrose Terrace,Edinburgh,UK,"66 Montrose Terrace , Edinburgh , UK",55.9570817,-3.170152
Undertakers,185 Morningside Road,Edinburgh,UK,"185 Morningside Road , Edinburgh , UK",55.9287653,-3.2093572
Undertakers,23 South Clerk Street,Edinburgh,UK,"23 South Clerk Street , Edinburgh , UK",55.9411843,-3.1809343
Undertakers,60 Lochrin Buildings,Edinburgh,UK,"60 Lochrin Buildings , Edinburgh , UK",55.9418302,-3.2052961
Undertakers,5 Grange Loan,Edinburgh,UK,"5 Grange Loan , Edinburgh , UK",55.9339052,-3.1786015
Undertakers,49 Pitt Street,Edinburgh,UK,"49 Pitt Street , Edinburgh , UK",55.9733984,-3.1861393
Undertakers,12 West Nicolson Street,Edinburgh,UK,"12 West Nicolson Street , Edinburgh , UK",55.9447895,-3.1849214
Undertakers,16 West Nicolson Street,Edinburgh,UK,"16 West Nicolson Street , Edinburgh , UK",55.9447895,-3.1849214
Undertakers,19 Home Street,Edinburgh,UK,"19 Home Street , Edinburgh , UK",55.9432023,-3.2034573
Undertakers,10 St James’ Place,Edinburgh,UK,"10 St James’ Place , Edinburgh , UK",55.9559639,-3.1890711
Undertakers,11 St James’ Place,Edinburgh,UK,"11 St James’ Place , Edinburgh , UK",55.9559639,-3.1890711
Undertakers,22 Causewayside,Edinburgh,UK,"22 Causewayside , Edinburgh , UK",55.9387002,-3.1818952
Undertakers,3 Lady Lawson Street,Edinburgh,UK,"3 Lady Lawson Street , Edinburgh , UK",55.9465468,-3.2007316
Undertakers,19 Dean Street,Edinburgh,UK,"19 Dean Street , Edinburgh , UK",55.9585093,-3.2111255
Undertakers,21 Dean Street,Edinburgh,UK,"21 Dean Street , Edinburgh , UK",55.9584968,-3.2111661
Undertakers,122 Dalry Road,Edinburgh,UK,"122 Dalry Road , Edinburgh , UK",55.9396186,-3.2257093
Undertakers,81 Great Junction Street,Edinburgh,UK,"81 Great Junction Street , Edinburgh , UK",55.9716565,-3.1740323
Undertakers,1 Erskine Place,Edinburgh,UK,"1 Erskine Place , Edinburgh , UK",55.9538218,-3.22705772044592
Undertakers,11 Hope Street,Edinburgh,UK,"11 Hope Street , Edinburgh , UK",55.9507506,-3.2079847
Undertakers,96 Raeburn Place,Edinburgh,UK,"96 Raeburn Place , Edinburgh , UK",55.9592742,-3.2136077
Undertakers,"Bangholm, Ferry Road",Edinburgh,UK,"Bangholm, Ferry Road , Edinburgh , UK",55.9721549,-3.2007996
Undertakers,10 Queensferry Street,Edinburgh,UK,"10 Queensferry Street , Edinburgh , UK",55.9513595,-3.2114694
Undertakers,136 Easter Road,Edinburgh,UK,"136 Easter Road , Edinburgh , UK",55.9597613,-3.1714528
Undertakers,11A Lauriston Place,Edinburgh,UK,"11A Lauriston Place , Edinburgh , UK",55.9444812,-3.2013488
Undertakers,13 Lauriston Place,Edinburgh,UK,"13 Lauriston Place , Edinburgh , UK",55.9444812,-3.2013488
Undertakers,10 George Street,Edinburgh,UK,"10 George Street , Edinburgh , UK",55.9537456,-3.194939
Undertakers,"247 High Street, Portobello",Edinburgh,UK,"247 High Street, Portobello , Edinburgh , UK",55.9518426,-3.111071
Undertakers,179 Great Junction Street,Edinburgh,UK,"179 Great Junction Street , Edinburgh , UK",55.9733754,-3.1767114
Undertakers,335 Leith Walk,Edinburgh,UK,"335 Leith Walk , Edinburgh , UK",55.9643993,-3.1767505
"Nurserymen, seedsmen & florists",50 Grange Loan,Edinburgh,UK,"50 Grange Loan , Edinburgh , UK",55.9335148,-3.180119
"Nurserymen, seedsmen & florists",68 Findhorn Place,Edinburgh,UK,"68 Findhorn Place , Edinburgh , UK",55.9331197,-3.1794503
"Nurserymen, seedsmen & florists",89 Marchmont road,Edinburgh,UK,"89 Marchmont road , Edinburgh , UK",55.9358203,-3.1940558
"Nurserymen, seedsmen & florists",41 Queensferry Street,Edinburgh,UK,"41 Queensferry Street , Edinburgh , UK",55.9506142,-3.2090039
"Nurserymen, seedsmen & florists",42 Queensferry Street,Edinburgh,UK,"42 Queensferry Street , Edinburgh , UK",55.9505797,-3.2089239
"Nurserymen, seedsmen & florists",41 Princes Street,Edinburgh,UK,"41 Princes Street , Edinburgh , UK",55.9527353,-3.1927024
"Nurserymen, seedsmen & florists",41A Princes Street,Edinburgh,UK,"41A Princes Street , Edinburgh , UK",55.9527353,-3.1927024
"Nurserymen, seedsmen & florists",8 Bowhill Terrace,Edinburgh,UK,"8 Bowhill Terrace , Edinburgh , UK",55.9710442,-3.2075056
"Nurserymen, seedsmen & florists",7 Summer Place,Edinburgh,UK,"7 Summer Place , Edinburgh , UK",55.9639182,-3.2017656
"Nurserymen, seedsmen & florists",29 Merchiston Crescent,Edinburgh,UK,"29 Merchiston Crescent , Edinburgh , UK",55.9345127,-3.2150428
"Nurserymen, seedsmen & florists",45 Queensferry Street,Edinburgh,UK,"45 Queensferry Street , Edinburgh , UK",55.9504887,-3.2087158
"Nurserymen, seedsmen & florists",46 Hanover Street,Edinburgh,UK,"46 Hanover Street , Edinburgh , UK",55.9531031,-3.1974183
"Nurserymen, seedsmen & florists",1 Waterloo Place,Edinburgh,UK,"1 Waterloo Place , Edinburgh , UK",55.9536189,-3.188294
"Nurserymen, seedsmen & florists",75 Shandwick Place,Edinburgh,UK,"75 Shandwick Place , Edinburgh , UK",55.9496194,-3.2093827
"Nurserymen, seedsmen & florists",77 Shandwick Place,Edinburgh,UK,"77 Shandwick Place , Edinburgh , UK",55.9492194,-3.2098555
"Nurserymen, seedsmen & florists",123 Constitution Street,Edinburgh,UK,"123 Constitution Street , Edinburgh , UK",55.9723306,-3.1689024
"Nurserymen, seedsmen & florists",31 Comely bank road,Edinburgh,UK,"31 Comely bank road , Edinburgh , UK",55.9592882,-3.216385
"Nurserymen, seedsmen & florists",42A Lauriston Place,Edinburgh,UK,"42A Lauriston Place , Edinburgh , UK",55.9444812,-3.2013488
"Nurserymen, seedsmen & florists",27 Frederick Street,Edinburgh,UK,"27 Frederick Street , Edinburgh , UK",55.9525275,-3.1997994
"Nurserymen, seedsmen & florists",17 Queensferry Street,Edinburgh,UK,"17 Queensferry Street , Edinburgh , UK",55.9508609,-3.2099947
"Nurserymen, seedsmen & florists",47 Dalry Road,Edinburgh,UK,"47 Dalry Road , Edinburgh , UK",55.9446032,-3.217679
"Nurserymen, seedsmen & florists",9 Bank Street,Edinburgh,UK,"9 Bank Street , Edinburgh , UK",55.9495671,-3.1927537
"Nurserymen, seedsmen & florists",34 South Clerk Street,Edinburgh,UK,"34 South Clerk Street , Edinburgh , UK",55.9403432,-3.1808027
"Nurserymen, seedsmen & florists",258 Causewayside,Edinburgh,UK,"258 Causewayside , Edinburgh , UK",55.9373236,-3.1807187
"Nurserymen, seedsmen & florists",East Claremont Street Gardens,Edinburgh,UK,"East Claremont Street Gardens , Edinburgh , UK",55.9618434,-3.1921194
"Nurserymen, seedsmen & florists",21 London Road,Edinburgh,UK,"21 London Road , Edinburgh , UK",55.9564283,-3.1610384
"Nurserymen, seedsmen & florists",22 London Road,Edinburgh,UK,"22 London Road , Edinburgh , UK",55.9550543,-3.1527551
"Nurserymen, seedsmen & florists",17A Frederick Street,Edinburgh,UK,"17A Frederick Street , Edinburgh , UK",55.9531537,-3.2004921
"Nurserymen, seedsmen & florists",105 West Port,Edinburgh,UK,"105 West Port , Edinburgh , UK",55.9460511,-3.2012514
"Nurserymen, seedsmen & florists",1A George IV Bridge,Edinburgh,UK,"1A George IV Bridge , Edinburgh , UK",55.9477467,-3.1916733
"Nurserymen, seedsmen & florists",138 Constitution Street,Edinburgh,UK,"138 Constitution Street , Edinburgh , UK",55.9723016,-3.1693444
"Nurserymen, seedsmen & florists",11 Antigua Street,Edinburgh,UK,"11 Antigua Street , Edinburgh , UK",55.95758,-3.184794
"Nurserymen, seedsmen & florists",57 Easter Road,Edinburgh,UK,"57 Easter Road , Edinburgh , UK",55.9594555,-3.1718429
"Nurserymen, seedsmen & florists",81A Gilmore Place,Edinburgh,UK,"81A Gilmore Place , Edinburgh , UK",55.9407719,-3.2094565
"Nurserymen, seedsmen & florists",1 Waterloo Place,Edinburgh,UK,"1 Waterloo Place , Edinburgh , UK",55.9536189,-3.188294
"Nurserymen, seedsmen & florists",4A St Andrew Square,Edinburgh,UK,"4A St Andrew Square , Edinburgh , UK",55.9534988,-3.1928163
"Nurserymen, seedsmen & florists",15 Princes Street,Edinburgh,UK,"15 Princes Street , Edinburgh , UK",55.95323,-3.1903937
"Nurserymen, seedsmen & florists",11 Forbes Road,Edinburgh,UK,"11 Forbes Road , Edinburgh , UK",55.9357522,-3.2072754
"Nurserymen, seedsmen & florists",9A Blackford Road,Edinburgh,UK,"9A Blackford Road , Edinburgh , UK",55.9323392,-3.1961783
"Nurserymen, seedsmen & florists",14 Melville Place,Edinburgh,UK,"14 Melville Place , Edinburgh , UK",55.9514029,-3.2111409
"Nurserymen, seedsmen & florists",15 Colinton Road,Edinburgh,UK,"15 Colinton Road , Edinburgh , UK",55.9337621,-3.2108417
"Nurserymen, seedsmen & florists",19 Colinton Road,Edinburgh,UK,"19 Colinton Road , Edinburgh , UK",55.9337396,-3.2108981
"Nurserymen, seedsmen & florists",3 Hillside Street,Edinburgh,UK,"3 Hillside Street , Edinburgh , UK",55.9592789,-3.1777656
"Nurserymen, seedsmen & florists",41 Queensferry Street,Edinburgh,UK,"41 Queensferry Street , Edinburgh , UK",55.9506142,-3.2090039
"Nurserymen, seedsmen & florists",42 Queensferry Street,Edinburgh,UK,"42 Queensferry Street , Edinburgh , UK",55.9505797,-3.2089239
"Nurserymen, seedsmen & florists",22 Woodburn Terrace,Edinburgh,UK,"22 Woodburn Terrace , Edinburgh , UK",55.926812,-3.2041345
"Nurserymen, seedsmen & florists",12 Queensferry Street,Edinburgh,UK,"12 Queensferry Street , Edinburgh , UK",55.9506011,-3.2095242
"Nurserymen, seedsmen & florists",19 Morningside Drive,Edinburgh,UK,"19 Morningside Drive , Edinburgh , UK",55.9241501,-3.2107932
"Nurserymen, seedsmen & florists",1 Newington Road,Edinburgh,UK,"1 Newington Road , Edinburgh , UK",55.9389961,-3.1792493
"Nurserymen, seedsmen & florists",414 Morningside Road,Edinburgh,UK,"414 Morningside Road , Edinburgh , UK",55.9254537,-3.2096663
"Nurserymen, seedsmen & florists",135 Princes Street,Edinburgh,UK,"135 Princes Street , Edinburgh , UK",55.9505828,-3.2062515
"Nurserymen, seedsmen & florists",120 Causewayside,Edinburgh,UK,"120 Causewayside , Edinburgh , UK",55.9371928,-3.1808719
"Nurserymen, seedsmen & florists",100 Bruntsfield Place,Edinburgh,UK,"100 Bruntsfield Place , Edinburgh , UK",55.9372285,-3.2071618
"Nurserymen, seedsmen & florists",113 George Street,Edinburgh,UK,"113 George Street , Edinburgh , UK",55.9525103,-3.2041908
"Nurserymen, seedsmen & florists",31 Shandwick Place,Edinburgh,UK,"31 Shandwick Place , Edinburgh , UK",55.9496194,-3.2093827
"Nurserymen, seedsmen & florists",2 Hope Street,Edinburgh,UK,"2 Hope Street , Edinburgh , UK",55.9504361,-3.2082039
"Nurserymen, seedsmen & florists",3 Rutland Place,Edinburgh,UK,"3 Rutland Place , Edinburgh , UK",55.9500934,-3.2081365
"Nurserymen, seedsmen & florists",113 Lothian Road,Edinburgh,UK,"113 Lothian Road , Edinburgh , UK",55.9460709,-3.2052752
"Nurserymen, seedsmen & florists",115 Lothian Road,Edinburgh,UK,"115 Lothian Road , Edinburgh , UK",55.946004,-3.205376
"Nurserymen, seedsmen & florists",4 Mentone Gardens,Edinburgh,UK,"4 Mentone Gardens , Edinburgh , UK",55.9313031,-3.1723683
"Nurserymen, seedsmen & florists",46 Polwarth Crescent,Edinburgh,UK,"46 Polwarth Crescent , Edinburgh , UK",55.9375988,-3.2166265
"Nurserymen, seedsmen & florists",225 Morningside Road,Edinburgh,UK,"225 Morningside Road , Edinburgh , UK",55.9279284,-3.2091864
"Nurserymen, seedsmen & florists",145 Gilmore Place,Edinburgh,UK,"145 Gilmore Place , Edinburgh , UK",55.939501,-3.2122141
"Nurserymen, seedsmen & florists",20 Union Place,Edinburgh,UK,"20 Union Place , Edinburgh , UK",55.9573509,-3.1857841
"Nurserymen, seedsmen & florists",29A Merchiston Crescent,Edinburgh,UK,"29A Merchiston Crescent , Edinburgh , UK",55.9345567,-3.2152419
"Nurserymen, seedsmen & florists",17 West Mayfield,Edinburgh,UK,"17 West Mayfield , Edinburgh , UK",55.933528,-3.1758761
"Nurserymen, seedsmen & florists",54 Dean Path,Edinburgh,UK,"54 Dean Path , Edinburgh , UK",55.9540435,-3.2208669
"Nurserymen, seedsmen & florists",16 Warriston road,Edinburgh,UK,"16 Warriston road , Edinburgh , UK",55.9677182,-3.1960957
"Nurserymen, seedsmen & florists",69 Home Street,Edinburgh,UK,"69 Home Street , Edinburgh , UK",55.9421719,-3.2032707
"Nurserymen, seedsmen & florists",2 Leven Street,Edinburgh,UK,"2 Leven Street , Edinburgh , UK",55.94194075,-3.2027931339424653
"Nurserymen, seedsmen & florists",200 Morrison Street,Edinburgh,UK,"200 Morrison Street , Edinburgh , UK",55.9462597,-3.2127694
Jewellers & gold/silver smiths,10 Albert Place,Edinburgh,UK,"10 Albert Place , Edinburgh , UK",55.9622189,-3.1792068000000002
Jewellers & gold/silver smiths,12 Albert Place,Edinburgh,UK,"12 Albert Place , Edinburgh , UK",55.9621925,-3.1793203
Jewellers & gold/silver smiths,63 Shandwick Place,Edinburgh,UK,"63 Shandwick Place , Edinburgh , UK",55.9493321,-3.2097589
Jewellers & gold/silver smiths,65 Shandwick Place,Edinburgh,UK,"65 Shandwick Place , Edinburgh , UK",55.9493123,-3.2098035
Jewellers & gold/silver smiths,80 Princes Street,Edinburgh,UK,"80 Princes Street , Edinburgh , UK",55.952105,-3.1972333
Jewellers & gold/silver smiths,16 South Clerk Street,Edinburgh,UK,"16 South Clerk Street , Edinburgh , UK",55.9406325,-3.1809735
Jewellers & gold/silver smiths,47 Iona Street,Edinburgh,UK,"47 Iona Street , Edinburgh , UK",55.9635695,-3.173951
Jewellers & gold/silver smiths,37 Queensferry Street,Edinburgh,UK,"37 Queensferry Street , Edinburgh , UK",55.9508121,-3.209443
Jewellers & gold/silver smiths,367 High Street,Edinburgh,UK,"367 High Street , Edinburgh , UK",55.949781,-3.1913943
Jewellers & gold/silver smiths,4 George Street,Edinburgh,UK,"4 George Street , Edinburgh , UK",55.9519887,-3.2066852
Jewellers & gold/silver smiths,53 Hanover Street,Edinburgh,UK,"53 Hanover Street , Edinburgh , UK",55.9532281,-3.1969041
Jewellers & gold/silver smiths,21 Leith Street,Edinburgh,UK,"21 Leith Street , Edinburgh , UK",55.9539918,-3.1878197
Jewellers & gold/silver smiths,119 Leith Street,Edinburgh,UK,"119 Leith Street , Edinburgh , UK",55.9546887,-3.1871362
Jewellers & gold/silver smiths,8 Picardy Place,Edinburgh,UK,"8 Picardy Place , Edinburgh , UK",55.9569888,-3.187226
Jewellers & gold/silver smiths,24 Shandwick Place,Edinburgh,UK,"24 Shandwick Place , Edinburgh , UK",55.9498137,-3.2092056
Jewellers & gold/silver smiths,11 Home Street,Edinburgh,UK,"11 Home Street , Edinburgh , UK",55.9433427,-3.2033816
Jewellers & gold/silver smiths,87 George Street,Edinburgh,UK,"87 George Street , Edinburgh , UK",55.9528645,-3.2019462
Jewellers & gold/silver smiths,19A Dalry Road,Edinburgh,UK,"19A Dalry Road , Edinburgh , UK",55.9396186,-3.2257093
Jewellers & gold/silver smiths,34 Caledonian Crescent,Edinburgh,UK,"34 Caledonian Crescent , Edinburgh , UK",55.942407,-3.2190252
Jewellers & gold/silver smiths,16 South Clerk Street,Edinburgh,UK,"16 South Clerk Street , Edinburgh , UK",55.9406325,-3.1809735
Jewellers & gold/silver smiths,44 Hanover Street,Edinburgh,UK,"44 Hanover Street , Edinburgh , UK",55.95306,-3.1973963
Jewellers & gold/silver smiths,35 South Bridge,Edinburgh,UK,"35 South Bridge , Edinburgh , UK",55.9488095,-3.186909
Jewellers & gold/silver smiths,5 East Register Street,Edinburgh,UK,"5 East Register Street , Edinburgh , UK",55.953751,-3.1912132
Jewellers & gold/silver smiths,30 George IV Bridge,Edinburgh,UK,"30 George IV Bridge , Edinburgh , UK",55.9472146,-3.1915661
Jewellers & gold/silver smiths,17 Crichton Place,Edinburgh,UK,"17 Crichton Place , Edinburgh , UK",55.9446213,-3.18675
Jewellers & gold/silver smiths,11 London Road,Edinburgh,UK,"11 London Road , Edinburgh , UK",55.9571649,-3.1683007
Jewellers & gold/silver smiths,128 Nicolson Street,Edinburgh,UK,"128 Nicolson Street , Edinburgh , UK",55.9440807,-3.1834687
Jewellers & gold/silver smiths,114 Nicolson Street,Edinburgh,UK,"114 Nicolson Street , Edinburgh , UK",55.944354,-3.1835177
Jewellers & gold/silver smiths,17 Bank Street,Edinburgh,UK,"17 Bank Street , Edinburgh , UK",55.9497732,-3.1929625
Jewellers & gold/silver smiths,18 Bank Street,Edinburgh,UK,"18 Bank Street , Edinburgh , UK",55.9497455,-3.1929523333333334
Jewellers & gold/silver smiths,19 Bank Street,Edinburgh,UK,"19 Bank Street , Edinburgh , UK",55.9497178,-3.1929421666666666
Jewellers & gold/silver smiths,20 Bank Street,Edinburgh,UK,"20 Bank Street , Edinburgh , UK",55.9496901,-3.192932
Jewellers & gold/silver smiths,20 Shandwick Place,Edinburgh,UK,"20 Shandwick Place , Edinburgh , UK",55.9498996,-3.2091798
Jewellers & gold/silver smiths,51 Princes Street,Edinburgh,UK,"51 Princes Street , Edinburgh , UK",55.9526079,-3.1940861
Jewellers & gold/silver smiths,47 George Street,Edinburgh,UK,"47 George Street , Edinburgh , UK",55.9534653,-3.1987697
Jewellers & gold/silver smiths,60 Leith Street,Edinburgh,UK,"60 Leith Street , Edinburgh , UK",55.9546887,-3.1871362
Jewellers & gold/silver smiths,143 Rose Street,Edinburgh,UK,"143 Rose Street , Edinburgh , UK",55.9518511,-3.2024306
Jewellers & gold/silver smiths,90 South Bridge,Edinburgh,UK,"90 South Bridge , Edinburgh , UK",55.9489678,-3.1871227
Jewellers & gold/silver smiths,18 Hanover Street,Edinburgh,UK,"18 Hanover Street , Edinburgh , UK",55.9524455,-3.1970819
Jewellers & gold/silver smiths,353 Leith Walk,Edinburgh,UK,"353 Leith Walk , Edinburgh , UK",55.9641392,-3.1770214
Jewellers & gold/silver smiths,4 North-West Circus Place,Edinburgh,UK,"4 North-West Circus Place , Edinburgh , UK",55.9572538,-3.2058328
Jewellers & gold/silver smiths,16 Bank Street,Edinburgh,UK,"16 Bank Street , Edinburgh , UK",55.9498145,-3.1930381
Jewellers & gold/silver smiths,19 Shandwick Place,Edinburgh,UK,"19 Shandwick Place , Edinburgh , UK",55.9496194,-3.2093827
Jewellers & gold/silver smiths,3 Bank Street,Edinburgh,UK,"3 Bank Street , Edinburgh , UK",55.9495671,-3.1927537
Jewellers & gold/silver smiths,4 Bank Street,Edinburgh,UK,"4 Bank Street , Edinburgh , UK",55.9495671,-3.1927537
Jewellers & gold/silver smiths,19 Bruntsfield Place,Edinburgh,UK,"19 Bruntsfield Place , Edinburgh , UK",55.9398605,-3.2046314
Jewellers & gold/silver smiths,85 Hanover Street,Edinburgh,UK,"85 Hanover Street , Edinburgh , UK",55.9541402,-3.1973503
Jewellers & gold/silver smiths,361 High Street,Edinburgh,UK,"361 High Street , Edinburgh , UK",55.9498019,-3.1912828
Jewellers & gold/silver smiths,21 Hanover Street,Edinburgh,UK,"21 Hanover Street , Edinburgh , UK",55.9526064,-3.1964451
Jewellers & gold/silver smiths,12 George IV Bridge,Edinburgh,UK,"12 George IV Bridge , Edinburgh , UK",55.9480054,-3.1919953
Jewellers & gold/silver smiths,16 George IV Bridge,Edinburgh,UK,"16 George IV Bridge , Edinburgh , UK",55.947875,-3.1919172
Jewellers & gold/silver smiths,7 Causewayside,Edinburgh,UK,"7 Causewayside , Edinburgh , UK",55.9373236,-3.1807187
Jewellers & gold/silver smiths,25 Frederick Street,Edinburgh,UK,"25 Frederick Street , Edinburgh , UK",55.9524711,-3.1998214
Jewellers & gold/silver smiths,35 Leith Street,Edinburgh,UK,"35 Leith Street , Edinburgh , UK",55.9541279,-3.1875646
Jewellers & gold/silver smiths,28 South Bridge,Edinburgh,UK,"28 South Bridge , Edinburgh , UK",55.949101,-3.1868455
Jewellers & gold/silver smiths,21 Forrest Road,Edinburgh,UK,"21 Forrest Road , Edinburgh , UK",55.9461318,-3.1912792
Jewellers & gold/silver smiths,191 Great Junction Street,Edinburgh,UK,"191 Great Junction Street , Edinburgh , UK",55.9735053,-3.1769077
Jewellers & gold/silver smiths,180 Fountainbridge,Edinburgh,UK,"180 Fountainbridge , Edinburgh , UK",55.9445501,-3.2058907
Jewellers & gold/silver smiths,"3 Arcade, Princes Street",Edinburgh,UK,"3 Arcade, Princes Street , Edinburgh , UK",55.9510145,-3.2027434
Jewellers & gold/silver smiths,"5 Arcade, Princes Street",Edinburgh,UK,"5 Arcade, Princes Street , Edinburgh , UK",55.9527353,-3.1927024
Jewellers & gold/silver smiths,"6 Arcade, Princes Street",Edinburgh,UK,"6 Arcade, Princes Street , Edinburgh , UK",55.9527353,-3.1927024
Jewellers & gold/silver smiths,63 Nicolson Street,Edinburgh,UK,"63 Nicolson Street , Edinburgh , UK",55.9444287,-3.183762
Jewellers & gold/silver smiths,88 Princes Street,Edinburgh,UK,"88 Princes Street , Edinburgh , UK",55.9518838,-3.1982441
Jewellers & gold/silver smiths,104 Leith Street,Edinburgh,UK,"104 Leith Street , Edinburgh , UK",55.9546887,-3.1871362
Jewellers & gold/silver smiths,74 Princes Street,Edinburgh,UK,"74 Princes Street , Edinburgh , UK",55.9523064,-3.196096
Jewellers & gold/silver smiths,24 Montagu Terrace,Edinburgh,UK,"24 Montagu Terrace , Edinburgh , UK",55.9699277,-3.207508
Jewellers & gold/silver smiths,29 South Bridge,Edinburgh,UK,"29 South Bridge , Edinburgh , UK",55.9490432,-3.1868165
Jewellers & gold/silver smiths,5 Dock Place,Edinburgh,UK,"5 Dock Place , Edinburgh , UK",55.9774658,-3.1716986
Jewellers & gold/silver smiths,43 Broughton Street,Edinburgh,UK,"43 Broughton Street , Edinburgh , UK",55.9574895,-3.1883335
Jewellers & gold/silver smiths,9 South College Street,Edinburgh,UK,"9 South College Street , Edinburgh , UK",55.9470002,-3.1868247
Jewellers & gold/silver smiths,132 George Street,Edinburgh,UK,"132 George Street , Edinburgh , UK",55.9519887,-3.2066852
Jewellers & gold/silver smiths,64 Hanover Street,Edinburgh,UK,"64 Hanover Street , Edinburgh , UK",55.9527944,-3.1968701
Jewellers & gold/silver smiths,99 South Bridge,Edinburgh,UK,"99 South Bridge , Edinburgh , UK",55.9491989,-3.1873062
Jewellers & gold/silver smiths,8 Daisy Terrace,Edinburgh,UK,"8 Daisy Terrace , Edinburgh , UK",55.9341722,-3.2299558
Jewellers & gold/silver smiths,53 Raeburn Place,Edinburgh,UK,"53 Raeburn Place , Edinburgh , UK",55.958963,-3.2123829
Jewellers & gold/silver smiths,66 Thistle Street,Edinburgh,UK,"66 Thistle Street , Edinburgh , UK",55.9538045,-3.1999746
Jewellers & gold/silver smiths,68 Thistle Street,Edinburgh,UK,"68 Thistle Street , Edinburgh , UK",55.9537967,-3.2000203
Jewellers & gold/silver smiths,10 Chambers Street,Edinburgh,UK,"10 Chambers Street , Edinburgh , UK",55.94790172085947,-3.1879639448671115
Jewellers & gold/silver smiths,128 Nicolson Street,Edinburgh,UK,"128 Nicolson Street , Edinburgh , UK",55.9440807,-3.1834687
Jewellers & gold/silver smiths,143 Lothian Road,Edinburgh,UK,"143 Lothian Road , Edinburgh , UK",55.9453944,-3.2051593
Jewellers & gold/silver smiths,145 Lothian Road,Edinburgh,UK,"145 Lothian Road , Edinburgh , UK",55.9453771,-3.2050295
Jewellers & gold/silver smiths,147 Lothian Road,Edinburgh,UK,"147 Lothian Road , Edinburgh , UK",55.9453117,-3.2051289
Jewellers & gold/silver smiths,70 George Street,Edinburgh,UK,"70 George Street , Edinburgh , UK",55.9529084,-3.2000166
Jewellers & gold/silver smiths,39 West Preston Street,Edinburgh,UK,"39 West Preston Street , Edinburgh , UK",55.9390554,-3.18056
Jewellers & gold/silver smiths,8 Montague Street,Edinburgh,UK,"8 Montague Street , Edinburgh , UK",55.9418388,-3.1805527
Jewellers & gold/silver smiths,13 Frederick Street,Edinburgh,UK,"13 Frederick Street , Edinburgh , UK",55.9520901,-3.1995158
Jewellers & gold/silver smiths,7 Buccleuch Place,Edinburgh,UK,"7 Buccleuch Place , Edinburgh , UK",55.9428052,-3.1858533000000002
Jewellers & gold/silver smiths,261 Great Junction Street,Edinburgh,UK,"261 Great Junction Street , Edinburgh , UK",55.9752333,-3.1788946
Jewellers & gold/silver smiths,32 Lochrin Buildings,Edinburgh,UK,"32 Lochrin Buildings , Edinburgh , UK",55.9419401,-3.2045593
Jewellers & gold/silver smiths,38 Elm Row,Edinburgh,UK,"38 Elm Row , Edinburgh , UK",55.9597277,-3.1825039
Jewellers & gold/silver smiths,107 Rose Street,Edinburgh,UK,"107 Rose Street , Edinburgh , UK",55.9520877,-3.2014673
Jewellers & gold/silver smiths,86 Morningside Road,Edinburgh,UK,"86 Morningside Road , Edinburgh , UK",55.9321089,-3.2101993
Jewellers & gold/silver smiths,88 Morningside Road,Edinburgh,UK,"88 Morningside Road , Edinburgh , UK",55.9320904,-3.2101514
Jewellers & gold/silver smiths,88 South Clerk Street,Edinburgh,UK,"88 South Clerk Street , Edinburgh , UK",55.9394478,-3.1800689
Jewellers & gold/silver smiths,59 Princes Street,Edinburgh,UK,"59 Princes Street , Edinburgh , UK",55.9524718,-3.1948309
Jewellers & gold/silver smiths,74 Princes Street,Edinburgh,UK,"74 Princes Street , Edinburgh , UK",55.9523064,-3.196096
Jewellers & gold/silver smiths,50 George Street,Edinburgh,UK,"50 George Street , Edinburgh , UK",55.9531843,-3.1983217
Jewellers & gold/silver smiths,19 Elder Street,Edinburgh,UK,"19 Elder Street , Edinburgh , UK",55.9561776,-3.1906741
Jewellers & gold/silver smiths,10 Chambers Street,Edinburgh,UK,"10 Chambers Street , Edinburgh , UK",55.94790172085947,-3.1879639448671115
Jewellers & gold/silver smiths,20 Forrest Road,Edinburgh,UK,"20 Forrest Road , Edinburgh , UK",55.945777,-3.1908745
Jewellers & gold/silver smiths,4 East Adam Street,Edinburgh,UK,"4 East Adam Street , Edinburgh , UK",55.9472235,-3.1829617
Jewellers & gold/silver smiths,66 Raeburn Place,Edinburgh,UK,"66 Raeburn Place , Edinburgh , UK",55.9592149,-3.212802
Jewellers & gold/silver smiths,13 Bristo Place,Edinburgh,UK,"13 Bristo Place , Edinburgh , UK",55.9459047,-3.1895315
Jewellers & gold/silver smiths,1 Mentone Terrace,Edinburgh,UK,"1 Mentone Terrace , Edinburgh , UK",55.9311828,-3.1737729
Jewellers & gold/silver smiths,57 Lothian Road,Edinburgh,UK,"57 Lothian Road , Edinburgh , UK",55.9476784,-3.2059681
Jewellers & gold/silver smiths,36 Leith Street,Edinburgh,UK,"36 Leith Street , Edinburgh , UK",55.9546887,-3.1871362
Jewellers & gold/silver smiths,20 Brandon Terrace,Edinburgh,UK,"20 Brandon Terrace , Edinburgh , UK",55.9619677,-3.2005446
Jewellers & gold/silver smiths,135C Princes Street,Edinburgh,UK,"135C Princes Street , Edinburgh , UK",55.9527353,-3.1927024
Jewellers & gold/silver smiths,5 Waverley Bridge,Edinburgh,UK,"5 Waverley Bridge , Edinburgh , UK",55.9526782,-3.1912317
Jewellers & gold/silver smiths,17 St Giles Street,Edinburgh,UK,"17 St Giles Street , Edinburgh , UK",55.9501307,-3.1922122
Jewellers & gold/silver smiths,16 Leith Street,Edinburgh,UK,"16 Leith Street , Edinburgh , UK",55.9546887,-3.1871362
Jewellers & gold/silver smiths,73 Rose Street,Edinburgh,UK,"73 Rose Street , Edinburgh , UK",55.9523938,-3.1994768
Jewellers & gold/silver smiths,42 Salisbury Place,Edinburgh,UK,"42 Salisbury Place , Edinburgh , UK",55.9370873,-3.179466
Jewellers & gold/silver smiths,12 St Andrew Square,Edinburgh,UK,"12 St Andrew Square , Edinburgh , UK",55.9536928,-3.1941781
Jewellers & gold/silver smiths,3 Waterloo Place,Edinburgh,UK,"3 Waterloo Place , Edinburgh , UK",55.9536574,-3.1880643
Jewellers & gold/silver smiths,8 Leith Street,Edinburgh,UK,"8 Leith Street , Edinburgh , UK",55.9546887,-3.1871362
Jewellers & gold/silver smiths,10 Leith Street,Edinburgh,UK,"10 Leith Street , Edinburgh , UK",55.9561442,-3.1860876
Jewellers & gold/silver smiths,36 South Bridge,Edinburgh,UK,"36 South Bridge , Edinburgh , UK",55.9488546,-3.1867325
Jewellers & gold/silver smiths,25 North Bridge,Edinburgh,UK,"25 North Bridge , Edinburgh , UK",55.9505271,-3.1874272
Jewellers & gold/silver smiths,131 Princes Street,Edinburgh,UK,"131 Princes Street , Edinburgh , UK",55.9507256,-3.2052742
Jewellers & gold/silver smiths,25 Leith Street,Edinburgh,UK,"25 Leith Street , Edinburgh , UK",55.9546887,-3.1871362
Jewellers & gold/silver smiths,82 South Bridge,Edinburgh,UK,"82 South Bridge , Edinburgh , UK",55.9488095,-3.186909
Jewellers & gold/silver smiths,132 George Street,Edinburgh,UK,"132 George Street , Edinburgh , UK",55.9519887,-3.2066852
Jewellers & gold/silver smiths,4 Millerfield Place,Edinburgh,UK,"4 Millerfield Place , Edinburgh , UK",55.9391681,-3.1878015
Jewellers & gold/silver smiths,4 Forrest Road,Edinburgh,UK,"4 Forrest Road , Edinburgh , UK",55.9460387,-3.1909173
Jewellers & gold/silver smiths,40 North Bridge,Edinburgh,UK,"40 North Bridge , Edinburgh , UK",55.9506291,-3.1880368
Jewellers & gold/silver smiths,38 Queensferry Street,Edinburgh,UK,"38 Queensferry Street , Edinburgh , UK",55.9508082,-3.2093728
Jewellers & gold/silver smiths,44 Shandwick Place,Edinburgh,UK,"44 Shandwick Place , Edinburgh , UK",55.9495959,-3.2098668
Jewellers & gold/silver smiths,50 Clerk Street,Edinburgh,UK,"50 Clerk Street , Edinburgh , UK",55.9420858,-3.1819328
Jewellers & gold/silver smiths,11 Great Junction Street,Edinburgh,UK,"11 Great Junction Street , Edinburgh , UK",55.9707108,-3.1724032
Jewellers & gold/silver smiths,1 Lower Gilmore Place,Edinburgh,UK,"1 Lower Gilmore Place , Edinburgh , UK",55.9418273,-3.20839
Jewellers & gold/silver smiths,139 Princes Street,Edinburgh,UK,"139 Princes Street , Edinburgh , UK",55.9505019,-3.206723
Jewellers & gold/silver smiths,6 Market Street,Edinburgh,UK,"6 Market Street , Edinburgh , UK",55.950923149999994,-3.189751529802503
Jewellers & gold/silver smiths,77 Rose Street,Edinburgh,UK,"77 Rose Street , Edinburgh , UK",55.9522177,-3.200521
Jewellers & gold/silver smiths,88 South Bridge,Edinburgh,UK,"88 South Bridge , Edinburgh , UK",55.9488948,-3.1871468
Jewellers & gold/silver smiths,55 Broughton Street,Edinburgh,UK,"55 Broughton Street , Edinburgh , UK",55.9578403,-3.1887677
Jewellers & gold/silver smiths,27 Earl Grey Street,Edinburgh,UK,"27 Earl Grey Street , Edinburgh , UK",55.9438952,-3.2039732
Jewellers & gold/silver smiths,28 Bread Street,Edinburgh,UK,"28 Bread Street , Edinburgh , UK",55.9458292,-3.2052915
Jewellers & gold/silver smiths,30 Bread Street,Edinburgh,UK,"30 Bread Street , Edinburgh , UK",55.9458292,-3.2052915
Jewellers & gold/silver smiths,32 Bread Street,Edinburgh,UK,"32 Bread Street , Edinburgh , UK",55.9458292,-3.2052915
Jewellers & gold/silver smiths,34 Bread Street,Edinburgh,UK,"34 Bread Street , Edinburgh , UK",55.9457056,-3.2034912
Jewellers & gold/silver smiths,12 Great Junction Street,Edinburgh,UK,"12 Great Junction Street , Edinburgh , UK",55.9709494,-3.1722939
Jewellers & gold/silver smiths,54 Leith Street,Edinburgh,UK,"54 Leith Street , Edinburgh , UK",55.9546887,-3.1871362
Jewellers & gold/silver smiths,10 South St Andrew Street,Edinburgh,UK,"10 South St Andrew Street , Edinburgh , UK",55.9533434,-3.1918191
Jewellers & gold/silver smiths,212 Morrison Street,Edinburgh,UK,"212 Morrison Street , Edinburgh , UK",55.9461552,-3.2145397
Jewellers & gold/silver smiths,"43 Leith Walk, Leith",Edinburgh,UK,"43 Leith Walk, Leith , Edinburgh , UK",55.9697713,-3.1721538
Jewellers & gold/silver smiths,30 Rose Street,Edinburgh,UK,"30 Rose Street , Edinburgh , UK",55.9518511,-3.2024306
Jewellers & gold/silver smiths,27A Marchmont Road,Edinburgh,UK,"27A Marchmont Road , Edinburgh , UK",55.9385332,-3.1946423
Jewellers & gold/silver smiths,22 Windsor Street,Edinburgh,UK,"22 Windsor Street , Edinburgh , UK",55.9587546,-3.1820361
Jewellers & gold/silver smiths,17 South St Andrew Street,Edinburgh,UK,"17 South St Andrew Street , Edinburgh , UK",55.9536476,-3.1915133
Jewellers & gold/silver smiths,93 South Bridge,Edinburgh,UK,"93 South Bridge , Edinburgh , UK",55.9490403,-3.1872231
Jewellers & gold/silver smiths,179 Bruntsfield Place,Edinburgh,UK,"179 Bruntsfield Place , Edinburgh , UK",55.9355767,-3.2096949
Jewellers & gold/silver smiths,139 Princes Street,Edinburgh,UK,"139 Princes Street , Edinburgh , UK",55.9505019,-3.206723
Jewellers & gold/silver smiths,192 Rose Street,Edinburgh,UK,"192 Rose Street , Edinburgh , UK",55.9513845,-3.2047
Jewellers & gold/silver smiths,139 Princes Street,Edinburgh,UK,"139 Princes Street , Edinburgh , UK",55.9505019,-3.206723
Jewellers & gold/silver smiths,59 Nicolson Street,Edinburgh,UK,"59 Nicolson Street , Edinburgh , UK",55.9455792,-3.1848992
Jewellers & gold/silver smiths,4 Nicolson Street,Edinburgh,UK,"4 Nicolson Street , Edinburgh , UK",55.9471043,-3.1857699
Jewellers & gold/silver smiths,178 Morrison Street,Edinburgh,UK,"178 Morrison Street , Edinburgh , UK",55.9462246,-3.2120144
